City_ID,City,Lat,Lng,Max Temp,Humidity,Cloudiness,Wind Speed,Country,Date
0,port moresby,-9.4431,147.1797,24.68,94,20,1.54,PG,1715270771
1,port lincoln,-34.7333,135.8667,14.2,79,0,4.53,AU,1715270797
2,port-aux-francais,-49.35,70.2167,5.25,82,52,10.84,TF,1715270797
3,happy valley-goose bay,53.3168,-60.3315,4.17,65,100,5.14,CA,1715270797
4,hithadhoo,-0.6,73.0833,29.47,77,100,4.8,MV,1715270797
5,mariinsk,56.2139,87.7472,9.03,56,96,2.84,RU,1715270797
6,port elizabeth,-33.918,25.5701,19.16,88,20,6.69,ZA,1715270797
7,zheleznodorozhnyy,55.7503,38.0042,6.29,41,92,6.26,RU,1715270798
8,college,64.8569,-147.8028,6.76,71,75,1.54,US,1715270798
9,blackmans bay,-43.0167,147.3167,12.07,96,100,0.37,AU,1715270798
10,hermanus,-34.4187,19.2345,14.89,75,0,4.87,ZA,1715270542
11,carnarvon,-24.8667,113.6333,23.51,69,100,1.79,AU,1715270798
12,kapa'a,22.0752,-159.319,20.61,90,75,3.6,US,1715270537
13,manokwari,-0.8667,134.0833,26.06,85,95,1.99,ID,1715270799
14,la sarre,48.8002,-79.1996,12.74,41,25,4.8,CA,1715270799
15,puerto natales,-51.7236,-72.4875,0.25,100,75,1.03,CL,1715270562
16,saint-philippe,-21.3585,55.7679,24.77,82,75,7.52,RE,1715270799
17,stanley,54.868,-1.6985,20.29,59,20,4.63,GB,1715270639
18,arraial do cabo,-22.9661,-42.0278,32.98,58,0,4.63,BR,1715270755
19,aasiaat,68.7098,-52.8699,-6.03,81,58,3.04,GL,1715270800
20,georgetown,5.4112,100.3354,30.96,77,40,3.09,MY,1715270754
21,tiksi,71.6872,128.8694,-2.83,89,100,1.33,RU,1715270800
22,waitangi,-43.9535,-176.5597,9.9,94,98,3.13,NZ,1715270800
23,kaiyuan,23.6977,103.3037,19.4,87,90,1.5,CN,1715270800
24,ahmadpur east,29.1431,71.2598,39.58,10,76,3.93,PK,1715270623
25,adamstown,-25.066,-130.1015,21.23,78,54,1.56,PN,1715270800
26,yazman,29.1212,71.7446,39.86,10,64,4.66,PK,1715270801
27,invercargill,-46.4,168.35,9.45,93,100,4.47,NZ,1715270801
28,san fernando de apure,7.8878,-67.4724,28.07,80,100,2.74,VE,1715270801
29,maine soroa,13.2114,12.0241,42.65,8,47,2.84,NE,1715270801
30,vila franca do campo,37.7167,-25.4333,19.23,99,100,2.98,PT,1715270801
31,puerto ayora,-0.7393,-90.3518,26.98,93,96,0.45,EC,1715270801
32,hamilton,39.1834,-84.5333,21.7,83,100,2.57,US,1715270443
33,port said,31.2565,32.2841,22.08,76,27,6.76,EG,1715270802
34,isafjordur,66.0755,-23.124,8.02,46,75,5.14,IS,1715270802
35,wau,7.7029,27.9953,35.74,12,13,1.88,SS,1715270802
36,albany,42.6001,-73.9662,15.3,64,100,0.45,US,1715270464
37,uliastay,47.7417,96.8444,6.85,51,12,2.14,MN,1715270802
38,iqaluit,63.7506,-68.5145,-1.15,68,75,1.54,CA,1715270739
39,whitehorse,60.7161,-135.0538,5.05,58,100,6.17,CA,1715270658
40,bethel,41.3712,-73.414,19.22,58,0,6.17,US,1715270803
41,ust-nera,64.5667,143.2,1.21,88,100,2.54,RU,1715270803
42,leeton,-34.5667,146.4,15.61,86,100,4.43,AU,1715270803
43,yoko,5.5333,12.3167,30.19,44,63,2.22,CM,1715270803
44,talnakh,69.4865,88.3972,-12.04,91,11,0.71,RU,1715270803
45,thompson,55.7435,-97.8558,12.44,59,100,4.37,CA,1715270804
46,edinburgh of the seven seas,-37.0676,-12.3116,12.97,58,36,8.39,SH,1715270804
47,port macquarie,-31.4333,152.9167,13.83,72,74,1.58,AU,1715270804
48,hilo,19.7297,-155.09,22.38,98,100,1.54,US,1715270804
49,utrik,11.2278,169.8474,26.95,76,92,8.26,MH,1715270804
50,grytviken,-54.2811,-36.5092,-0.34,73,48,1.24,GS,1715270805
51,santa rosa,14.3122,121.1114,30.05,78,16,4.92,PH,1715270687
52,afaahiti,-17.75,-149.2833,22.93,75,92,6.48,PF,1715270805
53,jeddah,21.5169,39.2192,31.92,40,0,5.14,SA,1715270663
54,ta`u,-14.2336,-169.5144,28.09,80,100,5.11,AS,1715270805
55,constantia,44.1833,28.65,14.38,79,100,7.51,RO,1715270805
56,zelenoborskiy,66.845,32.3622,1.34,63,95,3.78,RU,1715270805
57,alice springs,-23.7,133.8833,11.75,87,40,0.0,AU,1715270806
58,brisas de zicatela,15.8369,-97.0419,29.29,65,40,4.12,MX,1715270806
59,brod,45.1375,17.9897,19.7,73,96,4.7,BA,1715270806
60,lerwick,60.1545,-1.1494,10.0,73,87,4.25,GB,1715270806
61,port alfred,-33.5906,26.891,18.99,93,3,1.38,ZA,1715270806
62,i-n-salah,27.1935,2.4607,35.4,9,1,7.0,DZ,1715270806
63,port augusta,-32.5,137.7667,14.3,67,11,2.81,AU,1715270807
64,papatowai,-46.5619,169.4708,8.85,89,97,7.2,NZ,1715270807
65,pacific grove,36.6177,-121.9166,22.03,68,0,4.02,US,1715270807
66,east london,-33.0153,27.9116,21.52,83,0,1.54,ZA,1715270522
67,west island,-12.1568,96.8225,26.99,78,40,7.72,CC,1715270807
68,iskateley,67.6803,53.1512,-1.66,95,100,11.62,RU,1715270807
69,keflavik,64.0049,-22.5624,8.24,53,75,3.09,IS,1715270808
70,alo,7.4178,6.7371,37.9,37,84,1.65,NG,1715270808
71,cedeira,43.6797,-8.0209,20.71,83,100,4.58,ES,1715270808
72,kingston,17.997,-76.7936,33.98,70,20,2.57,JM,1715270612
73,patterson,37.4716,-121.1297,18.99,51,7,3.41,US,1715270577
74,ngama,11.7833,17.1667,42.21,7,100,0.56,TD,1715270809
75,lycksele,64.5954,18.6735,3.02,93,100,2.57,SE,1715270809
76,rantepao,-2.9701,119.8978,19.89,98,97,0.98,ID,1715270809
77,olonkinbyen,70.9221,-8.7187,-2.29,78,100,11.25,SJ,1715270809
78,sake,-1.5736,29.045,18.79,95,100,1.17,CD,1715270809
79,queenstown,-31.8976,26.8753,21.54,30,47,3.97,ZA,1715270810
80,bilibino,68.0546,166.4372,-8.51,98,54,1.73,RU,1715270810
81,san antonio de pale,-1.4014,5.6325,27.44,84,64,4.42,GQ,1715270810
82,sarmiento,-45.5882,-69.07,5.88,71,49,1.77,AR,1715270810
83,nouadhibou,20.931,-17.0347,22.99,68,20,7.72,MR,1715270810
84,kailua-kona,19.6406,-155.9956,21.98,83,0,1.54,US,1715270807
85,tenno,39.9,139.9667,11.88,68,70,7.14,JP,1715270810
86,quincy,42.2529,-71.0023,18.2,61,100,6.69,US,1715270287
87,mount pearl,47.5166,-52.7813,11.36,66,96,2.24,CA,1715270811
88,palu,-0.8917,119.8707,24.5,97,100,1.61,ID,1715270811
89,khujner,23.7833,76.6,34.64,27,42,4.9,IN,1715270811
90,rongelap,11.1635,166.8941,26.97,78,76,8.44,MH,1715270811
91,ribeira grande,38.5167,-28.7,20.22,73,75,5.66,PT,1715270811
92,yellowknife,62.456,-114.3525,14.67,50,5,4.02,CA,1715270812
93,longyearbyen,78.2186,15.6401,-0.09,69,75,11.83,SJ,1715270812
94,punta arenas,-53.15,-70.9167,5.06,65,75,1.54,CL,1715270812
95,antalaha,-14.9003,50.2788,23.95,78,57,4.39,MG,1715270812
96,inhambane,-23.865,35.3833,21.63,79,0,2.99,MZ,1715270812
97,les cayes,18.2,-73.75,29.62,67,66,5.13,HT,1715270813
98,banda aceh,5.5577,95.3222,28.17,79,60,1.75,ID,1715270813
99,anadyr,64.75,177.4833,-8.72,79,20,3.0,RU,1715270813
100,pisco,-13.7,-76.2167,20.01,88,100,4.12,PE,1715270813
101,new norfolk,-42.7826,147.0587,12.72,97,96,0.87,AU,1715270813
102,st. john's,47.5649,-52.7093,11.82,66,75,6.17,CA,1715270607
103,kayangel,8.0823,134.7173,28.42,78,56,3.36,PW,1715270814
104,champerico,14.3,-91.9167,30.36,65,92,3.06,GT,1715270814
105,tsiombe,-25.3,45.4833,22.98,78,0,4.5,MG,1715270814
106,kapuskasing,49.4169,-82.4331,10.05,53,40,3.6,CA,1715270762
107,ilulissat,69.2167,-51.1,-2.99,74,75,2.06,GL,1715270814
108,kerikeri,-35.2268,173.9474,7.73,80,31,2.95,NZ,1715270814
109,hawaiian paradise park,19.5933,-154.9731,20.57,98,100,1.54,US,1715270815
110,missoula,47.0166,-113.8009,3.22,67,82,1.36,US,1715270815
111,tazovsky,67.4667,78.7,-9.24,95,80,4.42,RU,1715270815
112,fortuna,40.5982,-124.1573,21.19,62,0,3.6,US,1715270816
113,poronaysk,49.2167,143.1167,5.31,84,100,3.71,RU,1715270816
114,biltine,14.5333,20.9167,40.68,8,22,6.4,TD,1715270746
115,luderitz,-26.6481,15.1594,17.52,70,29,7.65,NA,1715270593
116,nar'yan-mar,67.6713,53.087,-1.61,95,100,11.62,RU,1715270816
117,klyuchi,52.2667,79.1667,19.97,45,100,7.48,RU,1715270816
118,bengkulu,-3.8004,102.2655,25.82,88,14,2.26,ID,1715270816
119,kodiak,57.79,-152.4072,-1.27,93,20,0.0,US,1715270817
120,wewak,-3.5534,143.6268,25.68,91,96,2.11,PG,1715270817
121,bam,29.106,58.357,29.45,12,2,7.39,IR,1715270817
122,campbell river,50.0163,-125.2446,15.25,64,13,2.84,CA,1715270817
123,dryden,49.7833,-92.7503,11.41,37,7,2.5,CA,1715270817
124,manaure,11.7751,-72.4445,30.57,67,100,3.04,CO,1715270817
125,nelson bay,-32.7167,152.15,17.78,63,58,2.56,AU,1715270818
126,laela,-8.5667,32.05,17.76,83,49,1.76,TZ,1715270818
127,haiku-pauwela,20.9219,-156.3051,22.8,81,20,4.12,US,1715270818
128,cambria,35.5641,-121.0808,18.57,89,0,1.34,US,1715270818
129,selfoss,63.9331,-20.9971,7.94,44,100,2.53,IS,1715270819
130,harar,9.3094,42.1258,19.4,75,58,1.82,ET,1715270819
131,islamorada,24.9243,-80.6278,29.0,83,0,5.41,US,1715270630
132,melekeok village,7.4957,134.6367,27.47,83,50,2.57,PW,1715270819
133,santa cruz,-17.8,-63.1667,21.03,78,75,7.72,BO,1715270646
134,vernon,50.2581,-119.2691,17.35,48,40,2.06,CA,1715270272
135,balabac,7.9868,117.0645,27.89,78,41,3.31,PH,1715270820
136,luau,-10.7073,22.2247,24.86,50,32,1.66,AO,1715270820
137,avarua,-21.2078,-159.775,27.03,83,75,5.66,CK,1715270820
138,kivioli,59.3531,26.9711,6.7,66,91,2.72,EE,1715270820
139,uturoa,-16.7333,-151.4333,27.5,71,18,6.2,PF,1715270820
140,ushuaia,-54.8,-68.3,1.79,80,0,1.03,AR,1715270722
141,mahina,-17.5065,-149.489,23.87,78,20,1.54,PF,1715270821
142,bardai,11.65,7.2333,40.14,11,34,2.36,NG,1715270821
143,limon,10.0,-83.0333,31.14,74,40,3.09,CR,1715270794
144,villa emilio carranza,19.9667,-96.6,35.12,43,21,3.1,MX,1715270821
145,jamestown,42.097,-79.2353,15.01,59,20,4.12,US,1715270781
146,west end,26.6833,-78.9667,27.99,73,0,4.91,BS,1715270821
147,puerto carreno,6.189,-67.4859,26.01,87,100,2.46,CO,1715270822
148,margaret river,-33.95,115.0667,19.66,86,4,6.52,AU,1715270822
149,port mathurin,-19.6833,63.4167,25.57,75,100,10.73,MU,1715270822
150,shimoda,34.6667,138.95,12.76,77,9,2.35,JP,1715270822
151,yeosu,34.7546,127.6599,12.66,67,0,2.79,KR,1715270822
152,vennesla,58.2694,7.9741,14.68,67,75,4.63,NO,1715270822
153,bredasdorp,-34.5322,20.0403,14.99,68,0,3.42,ZA,1715270823
154,eyl,7.9803,49.8164,29.58,79,77,4.95,SO,1715270823
155,farah,32.5,62.5,24.98,40,0,5.29,AF,1715270823
156,guerrero negro,27.9769,-114.0611,17.54,62,41,4.67,MX,1715270652
157,turpan,42.9333,89.1667,26.73,13,0,1.33,CN,1715270823
158,polyarnyy,69.1989,33.4478,-1.36,78,90,3.93,RU,1715270823
159,ulety,51.3572,112.4849,6.36,74,100,6.16,RU,1715270824
160,touros,-5.1989,-35.4608,29.97,67,100,6.12,BR,1715270768
161,la'ie,21.6477,-157.9253,23.98,85,4,1.79,US,1715270824
162,kamina,-8.7386,24.9906,23.28,57,29,1.43,CD,1715270824
163,sambava,-14.2667,50.1667,25.54,72,62,5.91,MG,1715270824
164,santiago de cao,-7.9589,-79.2392,19.07,88,75,6.17,PE,1715270824
165,namtsy,62.7161,129.6658,-2.46,78,27,4.55,RU,1715270825
166,lata,40.1629,-8.3327,29.95,42,54,4.42,PT,1715270825
167,rio grande,-32.035,-52.0986,17.06,55,0,4.13,BR,1715270825
168,usinsk,65.9939,57.5281,-0.52,89,100,2.68,RU,1715270825
169,okha,53.5739,142.9478,3.47,93,100,2.68,RU,1715270826
170,fundacion,10.5207,-74.185,31.32,65,99,1.94,CO,1715270826
171,paracuru,-3.41,-39.0306,29.5,67,59,5.47,BR,1715270826
172,bilajer,40.5681,50.0378,16.9,72,0,5.14,AZ,1715270826
173,mitu,1.1983,-70.1733,26.62,94,100,1.25,CO,1715270826
174,bel ombre,-4.6167,55.4167,28.64,81,98,5.69,SC,1715270826
175,nikol'sk,53.7189,46.0712,0.57,74,99,5.56,RU,1715270827
176,udachny,66.4167,112.4,-7.53,87,93,2.67,RU,1715270827
177,leava,-14.3,-178.1667,27.98,66,100,7.05,WF,1715270827
178,alofi,-19.0595,-169.9187,24.94,83,75,3.6,NU,1715270827
179,lebu,-37.6167,-73.65,11.72,81,100,1.77,CL,1715270568
180,coquimbo,-29.9533,-71.3436,11.85,100,40,3.09,CL,1715270698
181,chul'man,56.8479,124.9104,-8.73,98,85,0.45,RU,1715270828
182,woolgoolga,-30.1106,153.2007,14.93,63,100,2.9,AU,1715270828
183,kristiansund,63.1115,7.732,9.03,61,75,4.12,NO,1715270828
184,puerto baquerizo moreno,-0.9,-89.6,27.55,69,75,7.72,EC,1715270828
185,magadan,59.5667,150.8,-0.26,91,21,0.89,RU,1715270600
186,inirida,3.8653,-67.9239,26.88,83,100,0.65,CO,1715270828
187,vallenar,-28.5708,-70.7581,20.33,45,100,2.3,CL,1715270829
188,toliara,-23.35,43.6667,24.06,80,0,4.27,MG,1715270829
189,lihue,21.9789,-159.3672,20.58,92,100,3.6,US,1715270829
190,calama,-22.4667,-68.9333,24.27,6,0,1.54,CL,1715270653
191,pontes e lacerda,-15.2261,-59.3353,35.94,35,20,0.79,BR,1715270829
192,kudahuvadhoo,2.6708,72.8944,29.54,73,83,3.7,MV,1715270829
193,xai-xai,-25.0519,33.6442,20.92,74,0,3.25,MZ,1715270830
194,puerto quijarro,-17.7833,-57.7667,35.85,35,65,1.36,BO,1715270830
195,vorgashor,67.5833,63.95,-2.33,74,100,10.59,RU,1715270830
196,votkinsk,57.0486,53.9872,2.65,56,100,5.13,RU,1715270830
197,quellon,-43.1167,-73.6167,9.59,77,77,6.33,CL,1715270830
198,hammerfest,70.6634,23.6821,4.25,48,40,6.17,NO,1715270830
199,onguday,50.75,86.15,13.59,47,48,1.73,RU,1715270831
200,malango,-2.9627,119.9001,19.89,98,97,0.98,ID,1715270831
201,padang,-0.9492,100.3543,27.03,88,95,1.59,ID,1715270831
202,charlestown,-32.95,151.6667,17.63,78,59,1.91,AU,1715270831
203,torbat-e heydariyeh,35.274,59.2195,12.75,67,97,7.07,IR,1715270831
204,vilyuchinsk,52.9306,158.4028,4.4,77,2,4.28,RU,1715270831
205,fort bragg,35.139,-79.006,24.91,71,75,9.26,US,1715270832
206,rapid valley,44.0625,-103.1463,12.51,74,100,8.75,US,1715270832
207,mount gambier,-37.8333,140.7667,11.74,78,76,1.6,AU,1715270832
208,playa blanca,28.8643,-13.8281,28.11,74,100,6.29,ES,1715270832
209,remire-montjoly,4.9167,-52.2667,27.02,89,75,1.54,GF,1715270833
210,saipan,15.1355,145.701,28.39,83,40,5.14,MP,1715270833
211,baran',54.4764,30.3181,7.88,54,21,3.46,BY,1715270833
212,santa terezinha,-29.9002,-50.0904,18.83,64,55,5.98,BR,1715270833
213,sittwe,20.15,92.9,28.37,68,0,3.99,MM,1715270833
214,ad dabbah,18.05,30.95,35.2,5,7,3.07,SD,1715270833
215,tolanaro,-25.0319,46.9987,22.97,81,0,5.78,MG,1715270833
216,labuan,5.2767,115.2417,28.19,78,83,2.5,MY,1715270834
217,mana,5.6592,-53.7767,29.07,70,100,4.46,GF,1715270778
218,la passe,45.5549,-0.8967,23.13,62,4,5.59,FR,1715270834
219,aban,56.67,96.06,4.78,78,100,2.72,RU,1715270834
220,taguatinga,-12.3857,-46.5711,33.89,29,0,3.85,BR,1715270742
221,collie,-33.3667,116.15,15.17,67,94,2.04,AU,1715270835
222,bima,-8.4667,118.7167,23.83,96,78,1.29,ID,1715270835
223,wailua homesteads,22.0669,-159.378,20.24,93,100,3.6,US,1715270835
224,smithers,54.7804,-127.1743,9.34,66,100,0.8,CA,1715270835
225,weare,43.0948,-71.7306,16.36,64,44,1.79,US,1715270835
226,likiep,9.8251,169.3107,27.41,82,85,9.25,MH,1715270835
227,san patricio,28.017,-97.5169,31.92,67,99,2.34,US,1715270835
228,walvis bay,-22.9575,14.5053,16.72,78,87,7.69,NA,1715270836
229,tadine,-21.55,167.8833,21.21,58,100,6.08,NC,1715270778
230,enewetak,11.3474,162.3373,27.27,73,89,9.05,MH,1715270836
231,mena,51.5217,32.2157,8.17,55,13,2.44,UA,1715270836
232,tarawa,1.419,172.984,27.05,89,75,2.57,KI,1715270836
233,kathu,7.9178,98.3332,31.5,71,50,1.81,TH,1715270836
234,atafu village,-8.5421,-172.5159,29.06,74,81,2.2,TK,1715270837
235,nova sintra,14.8667,-24.7167,24.22,73,10,6.01,CV,1715270837
236,aracruz,-19.8203,-40.2733,30.68,47,10,2.01,BR,1715270837
237,ulysses,37.5814,-101.3552,17.02,45,0,6.69,US,1715270837
238,ambon,-3.6954,128.1814,27.15,14,96,2.46,ID,1715270837
239,orchard homes,46.8633,-114.0484,8.49,76,100,0.0,US,1715270837
240,margate,51.3813,1.3862,16.61,71,21,3.4,GB,1715270838
241,johnsburg,42.38,-88.242,14.01,92,99,3.58,US,1715270838
242,el calafate,-50.3408,-72.2768,1.16,89,99,1.52,AR,1715270838
243,piti village,13.4626,144.6933,28.03,91,0,4.12,GU,1715270838
244,katsuren-haebaru,26.3369,127.8719,20.05,75,0,2.06,JP,1715270838
245,jiuquan,39.7432,98.5174,18.57,37,100,4.97,CN,1715270838
246,ilhabela,-23.7781,-45.3581,30.63,49,38,2.15,BR,1715270839
247,karasu,41.071,30.7854,15.25,88,100,2.15,TR,1715270839
248,mar del plata,-38.0023,-57.5575,16.4,48,0,6.26,AR,1715270019
249,chilliwack,49.1747,-121.9443,15.56,62,55,6.17,CA,1715270590
250,farrokh shahr,32.2717,50.9801,14.5,25,0,2.16,IR,1715270839
251,konduga,11.6558,13.4213,41.76,12,50,1.09,NG,1715270839
252,niafunke,15.9322,-3.9906,43.77,5,0,2.75,ML,1715270839
253,petropavlovsk-kamchatsky,53.0452,158.6483,3.58,66,1,6.26,RU,1715270840
254,torghay,49.6339,63.4981,13.63,55,93,3.76,KZ,1715270840
255,pangkalanbuun,-2.6833,111.6167,24.33,99,69,0.8,ID,1715270840
256,mpika,-11.8343,31.4529,18.33,68,97,2.44,ZM,1715270840
257,nadym,65.5333,72.5167,-1.69,91,100,12.25,RU,1715270840
258,ancud,-41.8697,-73.8203,9.89,70,45,5.14,CL,1715270576
259,vila velha,-20.3297,-40.2925,31.09,79,20,4.63,BR,1715270841
260,al bawiti,28.3492,28.8659,34.85,7,1,3.4,EG,1715270837
261,sanming,26.2486,117.6186,19.86,95,100,0.67,CN,1715270841
262,sho'rchi,38.0141,67.7899,22.43,61,100,9.14,UZ,1715270841
263,taulaga,-11.0553,-171.0883,29.05,73,95,3.76,AS,1715270841
264,mareeba,-17.0,145.4333,20.4,89,100,0.95,AU,1715270841
265,polovinnoye,54.7914,65.9864,5.34,78,75,5.5,RU,1715270841
266,vilyuysk,63.7553,121.6247,-3.89,83,77,3.13,RU,1715270842
267,yulinshi,38.2906,109.7494,20.4,51,80,6.7,CN,1715270842
268,cestos city,5.46,-9.5828,28.8,79,100,2.69,LR,1715270842
269,prince rupert,54.3161,-130.3201,9.92,81,100,0.44,CA,1715270842
270,holyhead,53.3062,-4.6321,16.65,82,75,3.6,GB,1715270842
271,cheremushki,52.8356,91.3944,8.91,84,20,1.31,RU,1715270842
272,nueva gerona,21.8833,-82.8,32.09,52,45,6.2,CU,1715270843
273,dondo,-19.6094,34.7431,21.64,69,2,2.67,MZ,1715270843
274,qaqortoq,60.7167,-46.0333,4.27,60,100,0.83,GL,1715270843
275,san jose del cabo,23.0589,-109.6977,31.44,39,0,4.12,MX,1715270843
276,loa janan,-0.583,117.095,23.44,96,95,0.47,ID,1715270843
277,embu,-23.6489,-46.8522,31.53,41,72,1.07,BR,1715270686
278,acapulco de juarez,16.8634,-99.8901,26.9,74,0,0.0,MX,1715270777
279,badger,64.8,-147.5333,6.71,71,75,1.54,US,1715270844
280,kourou,5.1552,-52.6478,27.03,90,100,3.21,GF,1715270844
281,obihiro,42.9172,143.2044,2.59,91,0,1.12,JP,1715270844
282,muroto-misakicho,33.2833,134.15,16.68,59,0,2.13,JP,1715270844
283,mount isa,-20.7333,139.5,19.87,88,100,4.12,AU,1715270844
284,san luis de la loma,17.2706,-100.8939,28.98,57,18,2.25,MX,1715270844
285,ivdel',60.6911,60.4206,1.22,70,63,2.24,RU,1715270845
286,grimmen,54.1121,13.0405,16.11,67,66,3.81,DE,1715270845
287,malpura,26.2833,75.3833,37.21,13,50,3.54,IN,1715270845
288,el bauga,18.262,33.9081,36.62,9,4,2.97,SD,1715270845
289,praia da vitoria,38.7333,-27.0667,20.42,78,68,3.57,PT,1715270845
290,lompoc,34.6391,-120.4579,17.23,73,0,1.54,US,1715270845
291,mejit,10.2753,170.8646,27.16,83,99,9.11,MH,1715270846
292,broken hill,-31.95,141.4333,12.77,90,65,0.9,AU,1715270846
293,codrington,-38.2667,141.9667,11.0,83,100,2.18,AU,1715270846
294,gaiman,-43.2897,-65.4929,12.13,40,95,3.63,AR,1715270846
295,tomakivka,47.8157,34.7414,13.62,43,100,4.78,UA,1715270847
296,pijijiapan,15.7011,-93.23,33.11,41,100,2.53,MX,1715270847
297,znamenskoye,57.1281,73.8282,16.09,73,100,5.26,RU,1715270847
298,huarmey,-10.0681,-78.1522,22.13,78,22,4.07,PE,1715270847
299,gaalkacyo,6.7697,47.4308,34.62,36,100,1.22,SO,1715270778
300,tocopilla,-22.092,-70.1979,20.27,73,100,3.57,CL,1715270513
301,natal,-5.795,-35.2094,31.36,66,75,8.23,BR,1715270425
302,behshahr,36.6923,53.5526,15.09,91,97,0.79,IR,1715270848
303,swanage,50.6092,-1.9626,19.01,79,64,4.02,GB,1715270848
304,singkil,-7.9855,111.4161,24.11,94,3,1.19,ID,1715270848
305,anatuya,-28.4606,-62.8347,16.68,32,100,3.71,AR,1715270848
306,mokopane,-24.1944,29.0097,18.73,34,0,1.98,ZA,1715270848
307,castillos,-34.1667,-53.8333,14.4,57,0,3.57,UY,1715270574
308,new plymouth,-39.0667,174.0833,7.67,64,0,2.32,NZ,1715270849
309,sao jose do belmonte,-7.8614,-38.7597,30.33,53,97,4.3,BR,1715270849
310,mermoz boabab,14.7065,-17.4758,29.31,84,6,6.33,SN,1715270849
311,peace river,56.2501,-117.286,12.59,49,1,3.79,CA,1715270849
312,moose jaw,50.4001,-105.5344,15.15,55,20,7.72,CA,1715270726
313,garoowe,8.4054,48.4845,34.56,30,96,3.25,SO,1715270722
314,maibong,25.3,93.1667,19.77,96,72,0.39,IN,1715270850
315,rakops,-21.0167,24.3333,23.05,17,0,3.1,BW,1715270850
316,hadibu,12.65,54.0333,29.9,68,89,0.44,YE,1715270850
317,carutapera,-1.195,-46.02,30.67,68,55,3.23,BR,1715270850
318,minas de marcona,-15.2119,-75.1103,18.67,62,33,4.69,PE,1715270622
319,richards bay,-28.783,32.0377,23.52,74,0,5.31,ZA,1715270850
320,ingeniero jacobacci,-41.3427,-69.5448,6.91,53,62,7.49,AR,1715270851
321,pervomayskiy,53.2485,40.2871,3.75,54,84,4.55,RU,1715270851
322,puerto deseado,-47.7503,-65.8938,5.62,90,100,5.99,AR,1715270851
323,lingyuan,41.24,119.4011,15.25,47,97,2.78,CN,1715270851
324,roma,43.2128,-75.4557,16.64,64,100,3.09,US,1715270851
325,galliano,29.4422,-90.2992,31.67,74,100,4.12,US,1715270851
326,ilebo,-4.3167,20.5833,28.43,68,80,0.89,CD,1715270852
327,taoudenni,22.6783,-3.9836,43.09,4,5,2.53,ML,1715270852
328,mocoreta,-30.6189,-57.9634,13.37,61,87,3.12,AR,1715270584
329,xining,36.6167,101.7667,16.16,39,50,4.12,CN,1715270852
330,san juan colorado,16.4586,-97.9536,31.96,27,93,1.88,MX,1715270852
331,lamu,-2.2717,40.902,26.21,87,78,7.5,KE,1715270852
332,wad medani,14.4012,33.5199,37.49,6,75,3.52,SD,1715270853
333,gadzhiyevo,69.2551,33.3362,-1.25,77,95,3.97,RU,1715270853
334,dabou,5.3256,-4.3769,30.16,69,93,3.65,CI,1715270853
335,fale old settlement,-9.3852,-171.2468,28.72,75,82,2.14,TK,1715270853
336,isla vista,34.4133,-119.861,17.36,78,75,3.09,US,1715270853
337,darwin,-12.4611,130.8418,26.99,84,75,1.54,AU,1715270631
338,sitka,57.0531,-135.33,10.94,82,100,4.63,US,1715270853
339,sorong,-0.8833,131.25,26.81,88,100,4.16,ID,1715270721
340,roxas,11.5853,122.7511,27.3,82,73,4.2,PH,1715270854
341,yaguara,2.6636,-75.5175,22.81,92,100,1.66,CO,1715270854
342,valley city,46.9233,-98.0032,18.29,48,0,5.66,US,1715270854
343,broome,42.2506,-75.833,13.34,76,100,1.34,US,1715270854
344,bichura,50.5881,107.6022,3.3,85,100,2.29,RU,1715270854
345,zouerate,22.7187,-12.4521,38.57,7,100,5.35,MR,1715270855
346,lamar,33.6668,-95.5836,27.77,71,40,5.66,US,1715270855
347,dongola,19.1667,30.4833,35.6,4,3,4.3,SD,1715270855
348,nemuro,43.3236,145.575,3.38,91,100,4.14,JP,1715270855
349,madimba,-10.4,40.3333,25.7,83,85,5.79,TZ,1715270855
350,holualoa,19.6228,-155.9522,19.91,83,0,1.54,US,1715270855
351,vadso,70.0744,29.7487,2.49,64,0,6.69,NO,1715270856
352,la palma,33.8464,-118.0467,18.4,76,75,3.09,US,1715270856
353,porto torres,40.835,8.3972,22.1,71,47,4.07,IT,1715270856
354,dabat,12.9842,37.765,18.42,48,100,2.58,ET,1715270856
355,taroa,8.7058,171.2275,27.59,84,94,8.49,MH,1715270856
356,krasnozavodsk,56.45,38.2167,3.3,59,88,4.41,RU,1715270856
357,shahrak,34.1074,64.3052,15.6,43,50,2.15,AF,1715270857
358,wenxing,28.6667,112.8833,19.03,73,100,3.38,CN,1715270857
359,oranjemund,-28.55,16.4333,15.26,79,0,5.6,NA,1715270857
360,tralee,52.2704,-9.7026,19.14,55,0,6.17,IE,1715270857
361,puerto aysen,-45.4,-72.7,5.13,100,100,1.18,CL,1715270786
362,arilje,43.7531,20.0956,15.2,91,100,2.84,RS,1715270857
363,bosobolo,4.1833,19.9,27.07,71,100,1.65,CD,1715270679
364,ust-tsilma,65.441,52.1498,-0.22,88,55,4.02,RU,1715270858
365,birobidzhan,48.8,132.95,8.23,32,34,2.86,RU,1715270858
366,tidjikja,18.5564,-11.4271,42.3,5,0,1.31,MR,1715270858
367,balotra,25.8333,72.2333,36.33,22,11,7.98,IN,1715270858
368,dudinka,69.4058,86.1778,-10.74,94,7,4.02,RU,1715270858
369,palmer,42.1584,-72.3287,18.04,51,75,5.14,US,1715270859
370,likasi,-10.9814,26.7333,19.3,64,67,1.65,CD,1715270859
371,obra,24.4167,82.9833,28.33,47,96,3.41,IN,1715270859
372,polessk,54.862,21.1028,16.03,74,73,4.88,RU,1715270859
373,howard springs,-12.497,131.047,26.95,97,100,1.59,AU,1715270859
374,penja,4.6391,9.6799,30.46,67,100,2.1,CM,1715270859
375,quakenbruck,52.6833,7.95,20.89,57,99,1.51,DE,1715270859
376,damghan,36.1683,54.348,14.06,54,100,0.46,IR,1715270860
377,olinda,-8.0089,-34.8553,28.85,84,75,5.14,BR,1715270808
378,imst,47.2684,10.6698,6.94,76,99,1.58,AT,1715270860
379,mbaiki,3.8678,17.9892,26.38,73,100,2.14,CF,1715270860
380,oriximina,-1.7656,-55.8661,31.22,68,39,2.17,BR,1715270860
381,zaozersk,69.4005,32.4476,-1.55,79,95,3.78,RU,1715270860
382,yung shue wan,22.2333,114.1167,25.68,69,100,0.89,HK,1715270861
383,bakchar,57.0186,82.0711,11.63,58,100,3.16,RU,1715270861
384,balad,34.0164,44.1453,27.67,24,94,3.07,IQ,1715270861
385,newala kisimani,-10.95,39.2833,19.75,91,43,2.1,TZ,1715270861
386,hasaki,35.7333,140.8333,8.22,47,0,5.45,JP,1715270861
387,kalmunai,7.4167,81.8167,27.81,83,98,3.95,LK,1715270861
388,alpena,45.0617,-83.4327,13.18,63,75,4.63,US,1715270862
389,alice,27.7523,-98.0697,32.69,70,100,2.57,US,1715270862
390,freeport,40.6576,-73.5832,20.99,57,0,6.69,US,1715270772
391,pokhara,28.2333,83.9833,18.81,58,89,2.79,NP,1715270582
392,soto la marina,23.7667,-98.2167,40.6,23,3,0.6,MX,1715270862
393,nicoya,10.1483,-85.452,31.22,63,99,2.0,CR,1715270785
394,chui,-33.6971,-53.4616,14.06,62,0,3.37,UY,1715270863
395,ziro,27.6333,93.8333,10.05,96,30,1.15,IN,1715270863
396,cessnock,-32.8333,151.35,17.3,89,92,1.39,AU,1715270863
397,portland,45.5234,-122.6762,17.22,65,20,1.79,US,1715270683
398,robbah,33.2797,6.9098,25.38,23,0,1.21,DZ,1715270863
399,poso,-1.3959,120.7524,25.42,90,100,1.42,ID,1715270863
400,lagunillas,10.1301,-71.2595,30.6,69,98,2.98,VE,1715270864
401,arua,3.0201,30.9111,21.14,86,100,1.4,UG,1715270864
402,merizo village,13.2658,144.6691,27.85,92,44,6.08,GU,1715270864
403,edd,13.9297,41.6925,31.5,71,72,5.01,ER,1715270864
404,thurgoona,-36.0451,146.9919,14.33,90,100,1.32,AU,1715270864
405,dampit,-8.2116,112.7493,22.3,99,57,0.49,ID,1715270864
406,antigonish,45.6169,-61.9986,5.71,97,100,2.24,CA,1715270864
407,vanimo,-2.6741,141.3028,26.29,86,100,1.86,PG,1715270865
408,tannum sands,-23.9504,151.3693,20.94,83,75,4.12,AU,1715270865
409,krasnogorskiy,54.6025,61.231,5.51,52,90,4.25,RU,1715270865
410,merefa,49.8197,36.0519,9.14,47,7,3.71,UA,1715270782
411,lazaro cardenas,17.9583,-102.2,27.39,61,15,1.73,MX,1715270865
412,pangkalan brandan,4.0238,98.2782,26.0,89,62,1.03,ID,1715270838
413,ayorou,14.7308,0.9174,44.51,6,5,1.45,NE,1715270866
414,ketchikan,55.3422,-131.6461,9.26,93,100,3.09,US,1715270866
415,blama,7.8736,-11.3433,32.08,58,89,2.65,SL,1715270866
416,khmelnytskyi,49.4216,26.9965,14.25,61,54,1.35,UA,1715270866
417,jinka,5.65,36.65,19.15,90,99,1.46,ET,1715270866
418,riyadh,24.6877,46.7219,31.08,17,1,5.26,SA,1715270570
419,la ronge,55.1001,-105.2842,13.47,44,24,6.01,CA,1715270867
420,hinton,53.4001,-117.5857,13.49,38,99,2.52,CA,1715270867
421,cockburn town,21.4612,-71.1419,25.44,72,76,5.15,TC,1715270867
422,ipiales,0.8302,-77.6496,15.97,72,75,2.57,CO,1715270668
423,taltal,-25.4,-70.4833,17.59,72,100,2.22,CL,1715270867
424,hobyo,5.3505,48.5268,29.59,78,96,5.46,SO,1715270867
425,andergrove,-21.0833,149.1833,19.71,80,100,7.83,AU,1715270868
426,saldanha,-33.0117,17.9442,14.73,81,0,2.21,ZA,1715270868
427,kotlas,61.2611,46.6556,0.03,69,100,6.26,RU,1715270868
428,zaruma,-3.6833,-79.6167,19.97,69,59,1.83,EC,1715270868
429,jimenez,28.3333,-105.4,29.03,10,1,5.9,MX,1715270654
430,yelizovo,53.1873,158.3805,4.33,60,3,4.02,RU,1715270869
431,taro,-8.3862,115.28,23.0,100,100,0.66,ID,1715270869
432,colonia,50.9333,6.95,20.66,51,0,4.63,DE,1715270814
433,coahuayana de hidalgo,18.7,-103.6583,28.49,57,1,2.57,MX,1715270869
434,pariaman,-0.619,100.12,27.03,85,100,1.54,ID,1715270869
435,lhasa,29.65,91.1,7.51,69,100,2.32,CN,1715270869
436,muhos,64.808,25.9931,4.38,46,99,3.13,FI,1715270870
437,rosarito,32.3333,-117.0333,16.93,72,40,2.37,MX,1715270663
438,luwuk,-0.9516,122.7875,23.49,87,100,0.86,ID,1715270838
439,newman,37.3138,-121.0208,20.14,52,4,3.58,US,1715270858
440,cabo san lucas,22.8909,-109.9124,30.9,39,0,2.57,MX,1715270730
441,ashmun,30.2986,30.9764,33.47,6,64,3.08,EG,1715270870
442,northam,51.0333,-4.2167,20.14,76,76,1.72,GB,1715270870
443,colac,-38.3333,143.5833,14.54,94,100,1.06,AU,1715270871
444,venezuela,8.0,-66.0,27.66,77,83,6.41,VE,1715270766
445,paraty,-23.2178,-44.7131,34.52,32,39,1.85,BR,1715270871
446,general pico,-35.6566,-63.7568,14.93,31,1,6.23,AR,1715270871
447,shasta lake,40.6804,-122.3708,20.59,33,3,4.25,US,1715270871
448,saint-pierre,-21.3393,55.4781,24.82,69,0,9.26,RE,1715270826
449,dunedin,-45.8742,170.5036,9.89,66,24,3.13,NZ,1715270789
450,kuantan,3.8077,103.326,26.76,87,96,1.05,MY,1715270872
451,palayan city,15.55,121.0833,27.59,82,28,2.27,PH,1715270872
452,ryki,51.6257,21.9327,17.81,47,20,2.49,PL,1715270872
453,tame,6.461,-71.73,26.18,88,100,2.78,CO,1715270782
454,conde,-7.2597,-34.9075,24.7,94,75,5.66,BR,1715270873
455,ndele,8.4109,20.6473,39.91,8,7,2.79,CF,1715270873
456,gogrial,8.5332,28.1004,38.22,10,83,1.37,SS,1715270873
457,palikir - national government center,6.9248,158.1611,27.67,78,100,8.49,FM,1715270873
458,tevriz,57.509,72.4042,15.31,85,63,6.6,RU,1715270873
459,almansa,38.8692,-1.0971,27.21,41,100,6.2,ES,1715270873
460,balkanabat,39.5108,54.3671,21.6,39,89,4.53,TM,1715270873
461,puerto armuelles,8.2833,-82.8667,29.99,77,71,1.79,PA,1715270759
462,nizhnyaya tavda,57.6731,66.1725,5.95,80,98,3.29,RU,1715270874
463,mujiayingzi,42.1167,118.7833,20.56,37,100,5.75,CN,1715270874
464,aldan,58.6031,125.3894,-6.47,95,80,1.46,RU,1715270874
465,geraldton,-28.7667,114.6,19.23,77,40,4.12,AU,1715270874
466,spring hill,28.4769,-82.5255,32.91,62,20,4.12,US,1715270874
467,fortaleza,-3.7227,-38.5247,32.07,81,20,7.72,BR,1715270594
468,kavaratti,10.5669,72.642,30.22,69,100,4.72,IN,1715270875
469,flying fish cove,-10.4217,105.6791,26.82,83,40,5.66,CX,1715270875
470,pasni,25.2631,63.471,28.05,83,0,2.95,PK,1715270875
471,conception bay south,47.4999,-52.9981,11.69,67,86,3.44,CA,1715270784
472,nadi,-17.8,177.4167,18.0,82,20,3.09,FJ,1715270778
473,afua,-0.1567,-50.3867,29.6,76,99,1.35,BR,1715270875
474,walterboro,32.9052,-80.6668,28.89,69,40,4.12,US,1715270875
475,donja mahala,45.0469,18.6664,19.99,60,91,4.86,BA,1715270876
476,lamarque,-39.423,-65.7021,15.24,21,87,9.27,AR,1715270876
477,bosaso,11.2842,49.1816,30.61,74,85,3.12,SO,1715270876
478,diapaga,12.0708,1.7889,39.63,24,83,3.87,BF,1715270876
479,galle,6.0367,80.217,28.64,77,81,1.54,LK,1715270876
480,mzuzu,-11.4656,34.0207,16.84,80,49,1.84,MW,1715270876
481,ponta delgada,37.7333,-25.6667,19.4,72,20,6.69,PT,1715270877
482,llallagua,-18.4167,-66.6333,13.0,38,39,1.72,BO,1715270877
483,khoyniki,51.8911,29.9552,9.76,49,53,1.79,BY,1715270877
484,dhangadhi,28.7079,80.5961,28.35,45,38,2.89,NP,1715270582
485,chulym,55.0997,80.9572,14.06,59,100,4.1,RU,1715270877
486,ta'izz,13.5,44.0,25.56,57,97,0.41,YE,1715270878
487,tura,25.5198,90.2201,22.86,72,71,2.17,IN,1715270878
488,priozersk,61.0393,30.1291,6.57,48,98,1.44,RU,1715270878
489,strelka,58.0728,93.0344,3.7,84,100,0.07,RU,1715270878
490,bemetara,21.7,81.5333,32.03,38,0,3.41,IN,1715270878
491,elko,41.0002,-115.5012,10.64,49,9,6.26,US,1715270878
492,kaa-khem,51.6833,94.7333,10.23,47,6,2.1,RU,1715270879
493,saint-joseph,-21.3667,55.6167,24.21,80,54,7.76,RE,1715270879
494,machico,32.7,-16.7667,26.11,76,20,3.6,PT,1715270879
495,usogorsk,63.4106,48.6872,0.93,98,96,1.31,RU,1715270879
496,craig,40.5153,-107.5464,6.97,53,40,3.6,US,1715270879
497,borujen,31.9652,51.2873,13.44,27,0,1.93,IR,1715270880
498,ilheus,-14.7889,-39.0494,29.22,58,0,3.49,BR,1715270880
499,yinchuan,38.4681,106.2731,24.69,27,100,5.87,CN,1715270880
500,tosno,59.54,30.8775,8.9,35,58,3.76,RU,1715270880
501,aroma,15.8167,36.1333,38.23,11,30,3.83,SD,1715270880
502,boguchany,58.3814,97.4531,3.81,79,44,2.24,RU,1715270880
503,sao joao da barra,-21.6403,-41.0511,33.05,80,17,4.99,BR,1715270881
504,saynshand,44.8824,110.1163,13.46,42,100,5.32,MN,1715270881
505,puerto asis,0.5133,-76.5007,23.91,94,100,0.43,CO,1715270881
506,sinan,34.8262,126.1086,14.26,71,0,4.01,KR,1715270881
507,kerimaki,61.9167,29.2833,8.97,25,0,5.14,FI,1715270881
508,zanjan,36.6736,48.4787,11.63,64,20,2.95,IR,1715270881
509,hunchun,42.8675,130.3581,9.79,44,57,1.34,CN,1715270881
510,barah,13.7,30.3667,33.72,7,63,4.27,SD,1715270882
511,kirakira,-10.4544,161.9205,25.45,85,98,3.65,SB,1715270882
512,tabou,4.423,-7.3528,29.88,72,93,2.66,CI,1715270695
513,nobeoka,32.5833,131.6667,12.7,61,0,2.65,JP,1715270882
514,flekkefjord,58.2971,6.6607,11.08,97,100,1.66,NO,1715270882
515,greymouth,-42.4667,171.2,1.85,80,0,2.75,NZ,1715270883
516,masuguru,-11.3667,38.4167,24.41,78,91,1.26,TZ,1715270883
517,morant bay,17.8815,-76.4093,29.99,69,63,4.65,JM,1715270883
518,ust'-ilimsk,58.0006,102.6619,4.13,80,69,4.02,RU,1715270883
519,shingu,33.7333,135.9833,8.9,52,0,3.05,JP,1715270883
520,takoradi,4.8845,-1.7554,29.7,69,100,3.26,GH,1715270883
521,camana,-16.6228,-72.7111,19.27,82,39,2.31,PE,1715270883
522,chunskiy,56.0815,99.6342,5.93,84,99,4.28,RU,1715270884
523,kendari,-3.945,122.4989,24.04,93,99,0.66,ID,1715270884
524,bodaybo,57.8506,114.1933,4.8,98,100,2.21,RU,1715270884
525,tulun,54.5611,100.5792,4.06,78,99,7.33,RU,1715270884
526,olyokminsk,60.3736,120.4264,-0.19,83,99,1.04,RU,1715270884
527,umm kaddadah,13.6017,26.6876,34.64,7,54,5.32,SD,1715270884
528,tomatlan,19.9333,-105.25,29.35,39,0,1.94,MX,1715270885
529,bekondo,4.6819,9.3214,26.92,80,100,1.69,CM,1715270885
530,laojunmiao,39.8333,97.7333,11.06,65,100,8.79,CN,1715270837
531,cabanas,22.9758,-82.9219,32.68,49,1,3.74,CU,1715270885
532,leh,34.1667,77.5833,0.04,44,1,3.44,IN,1715270885
533,almazan,41.4865,-2.5309,24.27,27,97,2.52,ES,1715270886
534,karratha,-20.7377,116.8463,23.97,54,9,2.35,AU,1715270886
535,grajewo,53.6473,22.4554,14.22,69,75,3.22,PL,1715270886
536,todos santos,23.45,-110.2167,30.17,45,48,4.83,MX,1715270718
537,panaba,21.2833,-88.2667,36.73,33,98,6.56,MX,1715270886
538,mushie,-3.0167,16.9,33.21,49,94,1.78,CD,1715270682
539,dzilam gonzalez,21.2833,-88.9333,36.34,35,70,3.66,MX,1715270886
540,greenville,35.6127,-77.3663,27.01,74,75,3.09,US,1715270749
541,salinopolis,-0.6136,-47.3561,29.73,72,67,3.78,BR,1715270752
542,pierre,44.3683,-100.351,17.51,74,0,4.63,US,1715270887
543,susuman,62.7833,148.1667,-0.57,86,85,1.79,RU,1715270887
544,san-pedro,4.7485,-6.6363,29.92,75,92,2.94,CI,1715270887
545,birjand,32.8663,59.2211,20.72,28,0,6.22,IR,1715270888
546,kill devil hills,36.0307,-75.676,27.0,70,75,3.09,US,1715270889
547,yopal,5.3378,-72.3959,25.95,84,99,1.35,CO,1715270783
548,iranshahr,27.2025,60.6848,34.35,10,0,5.22,IR,1715270889
549,hami,42.8,93.45,20.58,32,4,7.37,CN,1715270889
550,dum duma,27.5667,95.5667,21.49,72,26,1.34,IN,1715270889
551,paradip garh,20.3167,86.6167,26.44,73,37,3.94,IN,1715270889
552,taber,49.8167,-112.1518,13.17,53,48,2.51,CA,1715270890
553,ilanskiy,56.2358,96.065,4.92,73,98,2.06,RU,1715270890
554,ulladulla,-35.35,150.4667,14.86,85,100,1.85,AU,1715270890
555,yanam,16.7333,82.2167,25.47,88,100,1.39,IN,1715270890
556,kulhudhuffushi,6.6221,73.07,30.09,72,48,4.07,MV,1715270890
557,rybinsk,58.0446,38.8426,2.4,48,100,7.15,RU,1715270890
558,bandar lampung,-5.4254,105.258,24.12,94,3,0.28,ID,1715270890
559,makarov,48.6333,142.8,4.39,95,100,2.3,RU,1715270891
560,north battleford,52.7834,-108.2847,15.78,47,10,5.59,CA,1715270891
561,inyonga,-6.7167,32.0667,22.57,69,99,1.66,TZ,1715270891
562,grand falls-windsor,48.9332,-55.6649,7.34,60,99,2.64,CA,1715270823
563,dien bien phu,21.3833,103.0167,22.34,96,12,1.1,VN,1715270891
564,backi petrovac,45.3606,19.5917,21.07,58,99,4.92,RS,1715270892
565,kargasok,59.0556,80.8572,13.31,49,100,6.26,RU,1715270892
566,lakota,5.8528,-5.6883,29.4,77,95,1.31,CI,1715270892
567,norilsk,69.3535,88.2027,-11.81,93,13,0.65,RU,1715270600
568,kirkwall,58.9848,-2.9587,11.65,93,75,1.03,GB,1715270892
569,malindi,-3.2175,40.1191,26.74,80,79,7.6,KE,1715270892
570,echuca,-36.1333,144.75,13.87,90,100,3.39,AU,1715270893
571,nyurba,63.2842,118.3319,-3.27,84,87,2.11,RU,1715270893
572,muromtsevo,56.3724,75.2418,17.3,50,100,4.29,RU,1715270893
573,ishikawa,26.4233,127.8214,20.02,75,0,2.06,JP,1715270893
